{
	"races": [
		{
			"name": "Bahrain",
			"location": "Sakhir",
			"latitude": 26.037,
			"longitude": 50.5112,
			"round": 1,
			"slug": "bahrain-grand-prix",
			"localeKey": "bahrain-grand-prix",
			"sessions": {
				"fp1": "2022-03-18T12:00:00Z",
				"fp2": "2022-03-18T16:00:00Z",
				"fp3": "2022-03-19T12:00:00Z",
				"qualifying": "2022-03-19T15:00:00Z",
				"gp": "2022-03-20T15:00:00Z"
			}
		},
		{
			"name": "Saudi Arabian",
			"location": "Jeddah",
			"latitude": 21.485811,
			"longitude": 39.192505,
			"round": 2,
			"slug": "saudi-arabia-grand-prix",
			"localeKey": "saudi-arabia-grand-prix",
			"sessions": {
				"fp1": "2022-03-25T14:00:00Z",
				"fp2": "2022-03-25T17:00:00Z",
				"fp3": "2022-03-26T14:00:00Z",
				"qualifying": "2022-03-26T17:00:00Z",
				"gp": "2022-03-27T17:00:00Z"
			}
		},
		{
			"name": "Australian",
			"location": "Melbourne",
			"latitude": -37.8373,
			"longitude": 144.9666,
			"round": 3,
			"slug": "australian-grand-prix",
			"localeKey": "australian-grand-prix",
			"sessions": {
				"fp1" : "2022-04-08T03:00:00Z",
				"fp2" : "2022-04-08T06:00:00Z",
				"fp3" : "2022-04-09T03:00:00Z",
				"qualifying" : "2022-04-09T06:00:00Z",
				"gp" : "2022-04-10T05:00:00Z"
			}
		},
		{
			"name": "Emilia Romagna Grand Prix",
			"location": "Imola",
			"latitude": 44.344576,
			"longitude": 11.713808,
			"round": 4,
			"slug": "emilia-romagna-grand-prix",
			"localeKey": "emilia-romagna-grand-prix",
			"sessions": {
				"fp1": "2022-04-22T12:00:00Z",
				"fp2": "2022-04-22T15:00:00Z",
				"fp3": "2022-04-23T11:00:00Z",
				"qualifying": "2022-04-23T14:00:00Z",
				"gp": "2022-04-24T13:00:00Z"
			}
		},
		{
			"name": "Miami",
			"location": "Miami",
			"latitude": 25.957764,
			"longitude": -80.238835,
			"round": 5,
			"slug": "miami-grand-prix",
			"localeKey": "miami-grand-prix",
			"sessions": {
				"fp1": "2022-05-06T18:30:00Z",
				"fp2": "2022-05-06T21:30:00Z",
				"fp3": "2022-05-07T17:00:00Z",
				"qualifying": "2022-05-07T20:00:00Z",
				"gp": "2022-05-08T19:30:00Z"
			}
		},
		{
			"name": "Spanish",
			"location": "Catalunya",
			"latitude": 41.5638,
			"longitude": 2.2585,
			"round": 6,
			"slug": "spanish-grand-prix",
			"localeKey": "spanish-grand-prix",
			"sessions": {
				"fp1": "2022-05-20T12:00:00Z",
				"fp2": "2022-05-20T15:00:00Z",
				"fp3": "2022-05-21T11:00:00Z",
				"qualifying": "2022-05-21T14:00:00Z",
				"gp": "2022-05-22T13:00:00Z"
			}
		},
		{
			"name": "Monaco",
			"location": "Monte Carlo",
			"latitude": 43.7338,
			"longitude": 7.4215,
			"round": 7,
			"slug": "monaco-grand-prix",
			"localeKey": "monaco-grand-prix",
			"sessions": {
				"fp1": "2022-05-27T12:00:00Z",
				"fp2": "2022-05-27T15:00:00Z",
				"fp3": "2022-05-28T11:00:00Z",
				"qualifying": "2022-05-28T14:00:00Z",
				"gp": "2022-05-29T13:00:00Z"
			}
		},
		{
			"name": "Azerbaijan",
			"location": "Baku",
			"latitude": 40.3699,
			"longitude": 49.8433,
			"round": 8,
			"slug": "azerbaijan-grand-prix",
			"localeKey": "azerbaijan-grand-prix",
			"sessions": {
				"fp1": "2022-06-10T11:00:00Z",
				"fp2": "2022-06-10T14:00:00Z",
				"fp3": "2022-06-11T11:00:00Z",
				"qualifying": "2022-06-11T14:00:00Z",
				"gp": "2022-06-12T11:00:00Z"
			}
		},
		{
			"name": "Canadian",
			"location": "Montreal",
			"latitude": 45.5034,
			"longitude": -73.5267,
			"round": 9,
			"slug": "canadian-grand-prix",
			"localeKey": "canadian-grand-prix",
			"sessions": {
				"fp1" : "2022-06-17T18:00:00Z",
				"fp2" : "2022-06-17T21:00:00Z",
				"fp3" : "2022-06-18T17:00:00Z",
				"qualifying" : "2022-06-18T20:00:00Z",
				"gp" : "2022-06-19T18:00:00Z"
			}
		},
		{
			"name": "British",
			"location": "Silverstone",
			"latitude": 52.0706,
			"longitude": -1.0174,
			"round": 10,
			"slug": "british-grand-prix",
			"localeKey": "british-grand-prix",
			"sessions": {
				"fp1": "2022-07-01T12:00:00Z",
				"fp2": "2022-07-01T15:00:00Z",
				"fp3": "2022-07-02T11:00:00Z",
				"qualifying": "2022-07-02T14:00:00Z",
				"gp": "2022-07-03T14:00:00Z"
			}
		},
		{
			"name": "Austrian",
			"location": "Spielberg",
			"latitude": 47.2225,
			"longitude": 14.7607,
			"round": 11,
			"slug": "austrian-grand-prix",
			"localeKey": "austrian-grand-prix",
			"sessions": {
				"fp1": "2022-07-08T12:00:00Z",
				"fp2": "2022-07-08T15:00:00Z",
				"fp3": "2022-07-09T11:00:00Z",
				"qualifying": "2022-07-09T14:00:00Z",
				"gp": "2022-07-10T13:00:00Z"
			}
		},
		{
			"name": "French",
			"location": "Paul Ricard",
			"latitude": 43.2517,
			"longitude": 5.7935,
			"round": 12,
			"slug": "french-grand-prix",
			"localeKey": "french-grand-prix",
			"sessions": {
				"fp1": "2022-07-22T12:00:00Z",
				"fp2": "2022-07-22T15:00:00Z",
				"fp3": "2022-07-23T11:00:00Z",
				"qualifying": "2022-07-23T14:00:00Z",
				"gp": "2022-07-24T13:00:00Z"
			}
		},
		{
			"name": "Hungarian",
			"location": "Budapest",
			"latitude": 47.583,
			"longitude": 19.2526,
			"round": 13,
			"slug": "hungarian-grand-prix",
			"localeKey": "hungarian-grand-prix",
			"sessions": {
				"fp1": "2022-07-29T12:00:00Z",
				"fp2": "2022-07-29T15:00:00Z",
				"fp3": "2022-07-30T11:00:00Z",
				"qualifying": "2022-07-30T14:00:00Z",
				"gp": "2022-07-31T13:00:00Z"
			}
		},
		{
			"name": "Belgian",
			"location": "Spa-Francorchamps",
			"latitude": 50.444,
			"longitude": 5.9687,
			"round": 14,
			"slug": "belgian-grand-prix",
			"localeKey": "belgian-grand-prix",
			"sessions": {
				"fp1": "2022-08-26T12:00:00Z",
				"fp2": "2022-08-26T15:00:00Z",
				"fp3": "2022-08-27T11:00:00Z",
				"qualifying": "2022-08-27T14:00:00Z",
				"gp": "2022-08-28T13:00:00Z"
			}
		},
		{
			"name": "Dutch",
			"location": "Zandvoort",
			"latitude": 52.388408,
			"longitude": 4.547122,
			"round": 15,
			"slug": "dutch-grand-prix",
			"localeKey": "dutch-grand-prix",
			"sessions": {
				"fp1": "2022-09-02T12:00:00Z",
				"fp2": "2022-09-02T15:00:00Z",
				"fp3": "2022-09-03T11:00:00Z",
				"qualifying": "2022-09-03T14:00:00Z",
				"gp": "2022-09-04T13:00:00Z"
			}
		},
		{
			"name": "Italian",
			"location": "Monza",
			"latitude": 45.6169,
			"longitude": 9.2825,
			"round": 16,
			"slug": "italian-grand-prix",
			"localeKey": "italian-grand-prix",
			"sessions": {
				"fp1": "2022-09-09T12:00:00Z",
				"fp2": "2022-09-09T15:00:00Z",
				"fp3": "2022-09-10T11:00:00Z",
				"qualifying": "2022-09-10T14:00:00Z",
				"gp": "2022-09-11T13:00:00Z"
			}
		},
		{
			"name": "Russian",
			"location": "Sochi",
			"latitude": 43.6203,
			"longitude": 39.712,
			"round": 17,
			"slug": "russian-grand-prix",
			"localeKey": "russian-grand-prix",
			"sessions": {
				"fp1": "2022-09-23T10:00:00Z",
				"fp2": "2022-09-23T14:00:00Z",
				"fp3": "2022-09-24T10:00:00Z",
				"qualifying": "2022-09-24T13:00:00Z",
				"gp": "2022-09-25T11:00:00Z"
			}
		},
		{
			"name": "Singapore",
			"location": "Singapore",
			"latitude": 1.2857,
			"longitude": 103.8575,
			"round": 18,
			"slug": "singapore-grand-prix",
			"localeKey": "singapore-grand-prix",
			"sessions": {
				"fp1" : "2022-09-30T10:00:00Z",
				"fp2" : "2022-09-30T13:30:00Z",
				"fp3" : "2022-10-01T10:00:00Z",
				"qualifying" : "2022-10-01T13:00:00Z",
				"gp" : "2022-10-02T12:00:00Z"
			}
		},
		{
			"name": "Japanese",
			"location": "Suzuka",
			"latitude": 35.3689,
			"longitude": 138.9256,
			"round": 19,
			"slug": "japanese-grand-prix",
			"localeKey": "japanese-grand-prix",
			"sessions": {
				"fp1" : "2022-10-07T04:00:00Z",
				"fp2" : "2022-10-07T08:00:00Z",
				"fp3" : "2022-10-08T04:00:00Z",
				"qualifying" : "2022-10-08T07:00:00Z",
				"gp" : "2022-10-09T05:00:00Z"
			}
		},
		{
			"name": "United States",
			"location": "Austin",
			"latitude": 30.1328,
			"longitude": -97.6411,
			"round": 20,
			"slug": "us-grand-prix",
			"localeKey": "us-grand-prix",
			"sessions": {
				"fp1": "2022-10-21T19:00:00Z",
				"fp2": "2022-10-21T22:00:00Z",
				"fp3": "2022-10-22T19:00:00Z",
				"qualifying": "2022-10-22T22:00:00Z",
				"gp": "2022-10-23T19:00:00Z"
			}
		},
		{
			"name": "Mexican",
			"location": "Mexico City",
			"latitude": 19.4028,
			"longitude": -99.0986,
			"round": 21,
			"slug": "mexican-grand-prix",
			"localeKey": "mexico-grand-prix",
			"sessions": {
				"fp1": "2022-10-28T18:00:00Z",
				"fp2": "2022-10-28T21:00:00Z",
				"fp3": "2022-10-29T17:00:00Z",
				"qualifying": "2022-10-29T20:00:00Z",
				"gp": "2022-10-30T20:00:00Z"
			}
		},
		{
			"name": "Brazilian",
			"location": "Sao Paulo",
			"latitude": -23.7014,
			"longitude": -46.6969,
			"round": 22,
			"slug": "brazilian-grand-prix",
			"localeKey": "brazilian-grand-prix",
			"sessions": {
				"fp1": "2022-11-11T16:00:00Z",
				"fp2": "2022-11-11T19:00:00Z",
				"fp3": "2022-11-12T16:00:00Z",
				"qualifying": "2022-11-12T19:00:00Z",
				"gp": "2022-11-13T18:00:00Z"
			}
		},
		{
			"name": "Abu Dhabi",
			"location": "Yas Marina",
			"latitude": 24.4821,
			"longitude": 54.3482,
			"round": 23,
			"slug": "abu-dhabi-grand-prix",
			"localeKey": "abu-dhabi-grand-prix",
			"sessions": {
				"fp1": "2022-11-18T10:00:00Z",
				"fp2": "2022-11-18T13:00:00Z",
				"fp3": "2022-11-19T11:00:00Z",
				"qualifying": "2022-11-19T14:00:00Z",
				"gp": "2022-11-20T13:00:00Z"
			}
		}
	]
}
