{
  "races": [
    {
      "name": "Chinese",
      "location": "Shanghai",
      "latitude": 31.3807,
      "longitude": 121.2498,
      "round": 1,
      "slug": "chinese",
      "localeKey": "chinese",
      "sessions": {
        "fp1": "2026-03-13T01:10:00Z",
        "qualifying1": "2026-03-13T06:10:00Z"
      }
    },
    {
      "name": "Canadian",
      "location": "Montreal",
      "latitude": 45.5034,
      "longitude": -73.5267,
      "round": 2,
      "slug": "canadian",
      "localeKey": "canadian",
      "sessions": {
        "fp1": "2026-05-22T05:00:00Z",
        "qualifying1": "2026-05-22T06:00:00Z"
      }
    },
    {
      "name": "British",
      "location": "Silverstone",
      "latitude": 52.0706,
      "longitude": -1.0174,
      "round": 3,
      "slug": "british",
      "localeKey": "british",
      "sessions": {
        "fp1": "2026-07-03T00:00:00Z",
        "qualifying1": "2026-07-03T01:00:00Z"
      }
    },
    {
      "name": "Zandvoort",
      "location": "Netherlands",
      "latitude": 0,
      "longitude": 0,
      "round": 4,
      "slug": "zandvoort",
      "localeKey": "zandvoort",
      "sessions": {
        "fp1": "2026-08-20T23:00:00Z",
        "qualifying1": "2026-08-21T00:00:00Z"
      }
    },
    {
      "name": "United States",
      "location": "Austin",
      "latitude": 30.1328,
      "longitude": -97.6411,
      "round": 5,
      "slug": "austin",
      "localeKey": "austin",
      "sessions": {
        "fp1": "2026-10-23T06:00:00Z",
        "qualifying1": "2026-10-23T07:00:00Z"
      }
    },
    {
      "name": "Las Vegas",
      "location": "Las Vegas",
      "latitude": 36.166747,
      "longitude": -115.148708,
      "round": 6,
      "slug": "las-vegas",
      "localeKey": "las-vegas",
      "sessions": {
        "fp1": "2026-11-19T08:00:00Z",
        "qualifying1": "2026-11-19T09:00:00Z"
      }
    }
  ]
}
