{
  "races": [
    {
      "name": "Chinese",
      "location": "Shanghai",
      "latitude": 31.3807,
      "longitude": 121.2498,
      "round": 1,
      "slug": "chinese",
      "localeKey": "chinese",
      "sessions": {
        "fp1": "2026-03-13T01:10:00Z",
        "qualifying1": "2026-03-13T06:05:00Z",
        "race1": "2026-03-14T05:45:00Z",
        "race2": "2026-03-15T02:40:00Z"
      }
    },
    {
      "name": "Jeddah",
      "location": "Jeddah",
      "latitude": 21.485811,
      "longitude": 39.192505,
      "round": 2,
      "slug": "jeddah",
      "localeKey": "jeddah",
      "sessions": {
        "fp1": "2026-04-16T22:00:00Z",
        "qualifying1": "2026-04-16T23:00:00Z",
        "race1": "2026-04-17T22:00:00Z",
        "race2": "2026-04-18T22:00:00Z"
      }
    },
    {
      "name": "Canadian",
      "location": "Montreal",
      "latitude": 45.5034,
      "longitude": -73.5267,
      "round": 3,
      "slug": "canadian",
      "localeKey": "canadian",
      "sessions": {
        "fp1": "2026-05-22T06:00:00Z",
        "qualifying1": "2026-05-22T07:00:00Z",
        "race1": "2026-05-23T06:00:00Z",
        "race2": "2026-05-24T06:00:00Z"
      }
    },
    {
      "name": "British",
      "location": "Silverstone",
      "latitude": 52.0706,
      "longitude": -1.0174,
      "round": 4,
      "slug": "british",
      "localeKey": "british",
      "sessions": {
        "fp1": "2026-07-03T01:00:00Z",
        "qualifying1": "2026-07-03T02:00:00Z",
        "race1": "2026-07-04T01:00:00Z",
        "race2": "2026-07-05T01:00:00Z"
      }
    },
    {
      "name": "Zandvoort",
      "location": "Netherlands",
      "latitude": 0,
      "longitude": 0,
      "round": 5,
      "slug": "zandvoort",
      "localeKey": "zandvoort",
      "sessions": {
        "fp1": "2026-08-21T00:00:00Z",
        "qualifying1": "2026-08-21T01:00:00Z",
        "race1": "2026-08-22T00:00:00Z",
        "race2": "2026-08-23T00:00:00Z"
      }
    },
    {
      "name": "United States",
      "location": "Austin",
      "latitude": 30.1328,
      "longitude": -97.6411,
      "round": 6,
      "slug": "austin",
      "localeKey": "austin",
      "sessions": {
        "fp1": "2026-10-23T07:00:00Z",
        "qualifying1": "2026-10-23T08:00:00Z",
        "race1": "2026-10-24T07:00:00Z",
        "race2": "2026-10-25T07:00:00Z"
      }
    },
    {
      "name": "Las Vegas",
      "location": "Las Vegas",
      "latitude": 36.166747,
      "longitude": -115.148708,
      "round": 7,
      "slug": "las-vegas",
      "localeKey": "las-vegas",
      "sessions": {
        "fp1": "2026-11-19T09:00:00Z",
        "qualifying1": "2026-11-19T10:00:00Z",
        "race1": "2026-11-20T09:00:00Z",
        "race2": "2026-11-21T09:00:00Z"
      }
    }
  ]
}
