{
  "races": [
    {
      "name": "Bahrain",
      "location": "Sakhir",
      "latitude": 26.037,
      "longitude": 50.5112,
      "round": 1,
      "slug": "bahrain",
      "localeKey": "bahrain",
      "sessions": {
        "practice": "2024-02-29T09:05:00Z",
        "qualifying": "2024-02-29T13:55:00Z",
        "sprint": "2024-03-01T14:15:00Z",
        "feature": "2024-03-02T10:30:00Z"
      }
    },
    {
      "name": "Saudi Arabian",
      "location": "Jeddah",
      "latitude": 21.485811,
      "longitude": 39.192505,
      "round": 2,
      "slug": "saudi-arabia",
      "localeKey": "saudi-arabia",
      "sessions": {
        "practice": "2024-03-07T09:55:00Z",
        "qualifying": "2024-03-07T15:00:00Z",
        "sprint": "2024-03-08T15:10:00Z",
        "feature": "2024-03-09T13:25:00Z"
      }
    },
    {
      "name": "Australian",
      "location": "Melbourne",
      "latitude": -37.8373,
      "longitude": 144.9666,
      "round": 3,
      "slug": "melbourne",
      "localeKey": "melbourne",
      "sessions": {
        "practice": "2024-03-21T23:00:00Z",
        "qualifying": "2024-03-22T06:30:00Z",
        "sprint": "2024-03-23T03:15:00Z",
        "feature": "2024-03-24T00:35:00Z"
      }
    },
    {
      "name": "Emilia Romagna",
      "location": "Imola",
      "latitude": 44.344576,
      "longitude": 11.713808,
      "round": 4,
      "slug": "emilia-romagna",
      "localeKey": "emilia-romagna",
      "sessions": {
        "practice": "2024-05-17T09:05:00Z",
        "qualifying": "2024-05-17T14:00:00Z",
        "sprint": "2024-05-18T12:15:00Z",
        "feature": "2024-05-19T08:00:00Z"
      }
    },
    {
      "name": "Monaco",
      "location": "Monte Carlo",
      "latitude": 43.7338,
      "longitude": 7.4215,
      "round": 5,
      "slug": "monaco",
      "localeKey": "monaco",
      "sessions": {
        "practice": "2024-05-23T13:00:00Z",
        "qualifying": "2024-05-24T13:10:00Z",
        "sprint": "2024-05-25T12:15:00Z",
        "feature": "2024-05-26T07:40:00Z"
      }
    },
    {
      "name": "Spanish",
      "location": "Barcelona",
      "latitude": 41.5638,
      "longitude": 2.2585,
      "round": 6,
      "slug": "spanish",
      "localeKey": "spanish",
      "sessions": {
        "practice": "2024-06-21T09:05:00Z",
        "qualifying": "2024-06-21T13:55:00Z",
        "sprint": "2024-06-22T12:15:00Z",
        "feature": "2024-06-23T09:35:00Z"
      }
    },
    {
      "name": "Austrian",
      "location": "Spielberg",
      "latitude": 47.2225,
      "longitude": 14.7607,
      "round": 7,
      "slug": "austrian",
      "localeKey": "austrian",
      "sessions": {
        "practice": "2024-06-28T09:05:00Z",
        "qualifying": "2024-06-28T13:55:00Z",
        "sprint": "2024-06-29T12:30:00Z",
        "feature": "2024-06-30T09:00:00Z"
      }
    },
    {
      "name": "British",
      "location": "Silverstone",
      "latitude": 52.0706,
      "longitude": -1.0174,
      "round": 8,
      "slug": "british",
      "localeKey": "british",
      "sessions": {
        "practice": "2024-07-05T10:55:00Z",
        "qualifying": "2024-07-05T14:55:00Z",
        "sprint": "2024-07-06T09:35:00Z",
        "feature": "2024-07-07T09:40:00Z"
      }
    },
    {
      "name": "Hungarian",
      "location": "Budapest",
      "latitude": 47.583,
      "longitude": 19.2526,
      "round": 9,
      "slug": "hungarian",
      "localeKey": "hungarian",
      "sessions": {
        "practice": "2024-07-19T09:55:00Z",
        "qualifying": "2024-07-19T13:55:00Z",
        "sprint": "2024-07-20T08:35:00Z",
        "feature": "2024-07-21T08:40:00Z"
      }
    },
    {
      "name": "Belgian",
      "location": "Spa-Francorchamps",
      "latitude": 50.444,
      "longitude": 5.9687,
      "round": 10,
      "slug": "belgian",
      "localeKey": "belgian",
      "sessions": {
        "practice": "2024-07-26T09:55:00Z",
        "qualifying": "2024-07-26T13:55:00Z",
        "sprint": "2024-07-27T08:35:00Z",
        "feature": "2024-07-28T08:40:00Z"
      }
    },
    {
      "name": "Italian",
      "location": "Monza",
      "latitude": 45.6169,
      "longitude": 9.2825,
      "round": 11,
      "slug": "italian",
      "localeKey": "italian",
      "sessions": {
        "practice": "2024-08-30T09:55:00Z",
        "qualifying": "2024-08-30T13:55:00Z",
        "sprint": "2024-08-31T08:35:00Z",
        "feature": "2024-09-01T08:40:00Z"
      }
    },
    {
      "name": "Azerbaijan",
      "location": "Baku",
      "latitude": 40.3699,
      "longitude": 49.8433,
      "round": 12,
      "slug": "azerbaijan",
      "localeKey": "azerbaijan",
      "sessions": {
        "practice": "2024-09-13T07:55:00Z",
        "qualifying": "2024-09-13T11:55:00Z",
        "sprint": "2024-09-14T06:35:00Z",
        "feature": "2024-09-15T06:40:00Z"
      }
    },
    {
      "name": "Qatar",
      "location": "Doha",
      "latitude": 25.490292,
      "longitude": 51.45303,
      "round": 13,
      "slug": "qatar",
      "localeKey": "qatar",
      "sessions": {
        "practice": "2024-11-29T08:55:00Z",
        "qualifying": "2024-11-29T12:55:00Z",
        "sprint": "2024-11-30T07:35:00Z",
        "feature": "2024-12-01T07:40:00Z"
      }
    },
    {
      "name": "Abu Dhabi",
      "location": "Yas Marina",
      "latitude": 24.4821,
      "longitude": 54.3482,
      "round": 14,
      "slug": "abu-dhabi",
      "localeKey": "abu-dhabi",
      "sessions": {
        "practice": "2024-12-06T07:55:00Z",
        "qualifying": "2024-12-06T11:55:00Z",
        "sprint": "2024-12-07T06:35:00Z",
        "feature": "2024-12-08T06:40:00Z"
      }
    }
  ]
}
